City_ID,City,Longitude,Latitude,Max Temp,Humidity,Cloudiness,Wind Speed,Country,Date
0,san andres,-81.7006,12.5847,27.01,83,20,3.6,CO,1707795784
1,bilibino,166.4372,68.0546,-29.9,96,91,1.5,RU,1707795784
2,longyearbyen,15.6401,78.2186,-11.09,79,0,0.51,SJ,1707795784
3,aasiaat,-52.8699,68.7098,-29.8,97,57,3.12,GL,1707795690
4,port isabel,-97.2086,26.0734,16.68,66,0,2.68,US,1707795785
5,cockburn town,-71.1419,21.4612,25.27,76,0,8.81,TC,1707795785
6,michendorf,13.0257,52.3012,5.54,92,13,4.02,DE,1707795785
7,ushuaia,-68.3,-54.8,8.81,71,0,1.54,AR,1707795785
8,leava,-178.1667,-14.3,28.94,81,100,7.34,WF,1707795785
9,katsuren-haebaru,127.8719,26.3369,23.43,46,0,6.69,JP,1707795785
10,isafjordur,-23.124,66.0755,-1.51,90,100,5.18,IS,1707795785
11,guerrero negro,-114.0611,27.9769,16.09,57,0,7.15,MX,1707795786
12,inarajan village,144.7484,13.2736,30.54,73,77,10.62,GU,1707795786
13,stanley,-1.6985,54.868,3.77,85,40,7.2,GB,1707795786
14,yellowknife,-114.3525,62.456,-10.71,85,100,0,CA,1707795786
15,vila franca do campo,-25.4333,37.7167,18.27,99,47,8.41,PT,1707795786
16,waitangi,-176.5597,-43.9535,17.12,78,26,2.24,NZ,1707795629
17,tiksi,128.8694,71.6872,-32.38,100,100,1.05,RU,1707795786
18,afaahiti,-149.2833,-17.75,26.93,90,100,12.96,PF,1707795787
19,pierre,-100.351,44.3683,4.04,60,100,0,US,1707795787
20,jamestown,-79.2353,42.097,-1.1,83,0,4.63,US,1707795787
21,paracuru,-39.0306,-3.41,28.95,86,73,4.65,BR,1707795788
22,blackmans bay,147.3167,-43.0167,20.41,73,55,0.89,AU,1707795788
23,adamstown,-130.1015,-25.066,25.01,91,97,6.8,PN,1707795632
24,puerto ayora,-90.3518,-0.7393,26.97,97,46,0.89,EC,1707795789
25,perelyub,50.3667,51.8667,2.03,100,100,5.85,RU,1707795789
26,port lincoln,135.8667,-34.7333,21.83,60,4,8.67,AU,1707795789
27,port mathurin,63.4167,-19.6833,27.32,82,50,9.81,MU,1707795665
28,ad dilam,47.1627,23.9915,11.23,84,0,2.33,SA,1707795790
29,neiafu,-173.9833,-18.65,31.38,74,75,3.09,TO,1707795790
30,dhidhdhoo,73.1,6.8833,27.62,69,81,3.83,MV,1707795790
31,awjilah,21.2869,29.1081,12.83,58,70,2.06,LY,1707795790
32,grytviken,-36.5092,-54.2811,4.52,93,100,3.36,GS,1707795790
33,hermanus,19.2345,-34.4187,21,85,88,2.39,ZA,1707795503
34,bredasdorp,20.0403,-34.5322,17.95,96,77,2.62,ZA,1707795791
35,cassilandia,-51.7342,-19.1133,22.48,76,16,1.25,BR,1707795791
36,broome,-75.833,42.2506,-0.21,88,0,1.54,US,1707795791
37,albany,-73.9662,42.6001,1.24,74,93,1.48,US,1707795791
38,zahedan,60.8629,29.4963,11.17,19,1,1.38,IR,1707795791
39,kargasok,80.8572,59.0556,-22.6,96,94,3.45,RU,1707795791
40,nelson bay,152.15,-32.7167,27.78,71,1,12.52,AU,1707795589
41,talnakh,88.3972,69.4865,-34.07,86,21,1.74,RU,1707795791
42,port-aux-francais,70.2167,-49.35,7.53,87,99,12.96,TF,1707795792
43,usogorsk,48.6872,63.4106,-24.63,99,94,2.34,RU,1707795792
44,samho-rodongjagu,127.8711,39.9475,8.78,66,0,6.51,KP,1707795792
45,hawaiian paradise park,-154.9731,19.5933,23.82,80,100,1.54,US,1707795515
46,ta`u,-169.5144,-14.2336,28.32,81,82,6.8,AS,1707795678
47,vorkuta,64,67.5,-35.28,99,31,2.6,RU,1707795793
48,papatowai,169.4708,-46.5619,21.83,50,88,1.15,NZ,1707795530
49,ilulissat,-51.1,69.2167,-24.99,58,60,1.54,GL,1707795639
50,lebu,-73.65,-37.6167,12.79,84,0,7.02,CL,1707795793
51,uturoa,-151.4333,-16.7333,27.53,85,100,11.45,PF,1707795793
52,wynyard,145.7167,-41,20.67,70,64,2.59,AU,1707795794
53,la tuque,-72.7824,47.4334,-7.86,86,32,0.51,CA,1707795794
54,qaqortoq,-46.0333,60.7167,-2.27,93,100,4.02,GL,1707795634
55,st. john's,-52.7093,47.5649,0.99,93,100,5.14,CA,1707795794
56,bethel,-73.414,41.3712,3.2,72,20,0,US,1707795794
57,new norfolk,147.0587,-42.7826,21.07,25,55,4.49,AU,1707795794
58,mirny,113.9611,62.5353,-26.73,96,99,2.3,RU,1707795794
59,tsiombe,45.4833,-25.3,24.1,90,98,4.64,MG,1707795794
60,maun,23.4167,-19.9833,20.7,55,0,2.58,BW,1707795495
61,miahuatlan de porfirio diaz,-96.6,16.3333,15.22,89,2,2.32,MX,1707795795
62,khovd,91.6419,48.0056,-10.95,34,0,1.3,MN,1707795795
63,lodwar,35.5973,3.1191,28.87,39,66,3.33,KE,1707795795
64,selfoss,-20.9971,63.9331,-0.53,84,24,3.88,IS,1707795795
65,kirensk,108.1119,57.7853,-14,86,100,4.72,RU,1707795795
66,wailua homesteads,-159.378,22.0669,25.44,68,0,4.12,US,1707795796
67,avarua,-159.775,-21.2078,29.03,65,20,3.09,CK,1707795503
68,emporia,-96.1817,38.4039,4.38,65,0,1.54,US,1707795712
69,enewetak,162.3373,11.3474,26.5,77,90,9.68,MH,1707795796
70,klyuchi,79.1667,52.2667,-12.19,81,100,4.99,RU,1707795796
71,thompson,-97.8558,55.7435,-8.91,86,100,2.06,CA,1707795796
72,tazovsky,78.7,67.4667,-39.76,100,35,0.87,RU,1707795528
73,trevelin,-71.4639,-43.0858,13.71,66,97,1.37,AR,1707795797
74,west island,96.8225,-12.1568,29.99,70,40,5.14,CC,1707795797
75,puerto natales,-72.4875,-51.7236,7.37,84,100,2.12,CL,1707795797
76,arraial do cabo,-42.0278,-22.9661,25.01,90,82,9.61,BR,1707795500
77,petropavlovsk-kamchatsky,158.6483,53.0452,-8.67,72,20,3.13,RU,1707795797
78,mae chai,99.814,19.346,30.1,35,33,1.12,TH,1707795798
79,ribeira grande,-28.7,38.5167,17.1,88,51,9.83,PT,1707795798
80,saipan,145.701,15.1355,30.39,51,0,10.8,MP,1707795649
81,malayer,48.8235,34.2969,4.65,51,8,2.2,IR,1707795798
82,san antonio de pale,5.6325,-1.4014,28.27,81,60,3.11,GQ,1707795799
83,rio grande,-52.0986,-32.035,22.75,91,100,5,BR,1707795560
84,nova vicosa,-39.3719,-17.8919,24.93,91,6,1.54,BR,1707795799
85,fort st. john,-120.8529,56.2499,-2.06,40,20,3.09,CA,1707795799
86,noosa heads,153.15,-26.3833,23.95,77,87,5.87,AU,1707795799
87,sufalat sama'il,58.0167,23.3167,17.82,78,1,0.96,OM,1707795799
88,labrador city,-66.9114,52.9463,-12.05,85,100,3.09,CA,1707795799
89,diego de almagro,-70.05,-26.3667,19.75,58,63,0.71,CL,1707795800
90,comodoro rivadavia,-67.5,-45.8667,8.92,49,0,2.57,AR,1707795800
91,nantucket,-70.0995,41.2835,2.79,86,40,0,US,1707795563
92,xilin hot,116.0333,43.9667,-2.54,76,20,1.35,CN,1707795800
93,ancud,-73.8203,-41.8697,10.34,74,68,2.12,CL,1707795601
94,keflavik,-22.5624,64.0049,0.95,86,20,11.32,IS,1707795800
95,haiku-pauwela,-156.3051,20.9219,26.01,69,20,4.63,US,1707795800
96,bondo,23.6866,3.8146,23.17,66,42,0.47,CD,1707795801
97,punta arenas,-70.9167,-53.15,12.06,54,100,8.75,CL,1707795801
98,ponta delgada,-25.6667,37.7333,18.44,88,75,10.29,PT,1707795801
99,beni,29.4667,0.5,17.82,90,31,1.04,CD,1707795801
100,gadzhiyevo,33.3362,69.2551,-13.99,97,38,6.04,RU,1707795802
101,kununurra,128.7333,-15.7667,29.99,79,75,5.66,AU,1707795740
102,karratha,116.8463,-20.7377,31.13,61,5,6.27,AU,1707795802
103,ormara,64.6357,25.2088,20.24,66,100,2.09,PK,1707795686
104,blagodarnyy,43.4364,45.0978,8.25,69,99,1.01,RU,1707795803
105,kapuskasing,-82.4331,49.4169,-10,79,100,3.09,CA,1707795662
106,carnarvon,113.6333,-24.8667,24.86,82,0,7.68,AU,1707795547
107,taltal,-70.4833,-25.4,19.61,86,87,3.66,CL,1707795789
108,island harbour,-1.2758,50.724,8.29,87,99,1.34,GB,1707795803
109,windhoek,17.0832,-22.5594,23.57,53,75,1.34,NA,1707795804
110,general pico,-63.7568,-35.6566,14.65,63,0,3.36,AR,1707795804
111,pisco,-76.2167,-13.7,24.03,78,0,6.17,PE,1707795804
112,nishinoomote,131,30.7333,18.31,55,75,3.09,JP,1707795804
113,rio gallegos,-69.2181,-51.6226,12.03,58,0,4.12,AR,1707795683
114,port macquarie,152.9167,-31.4333,27.72,55,8,7.56,AU,1707795804
115,iqaluit,-68.5145,63.7506,-25.15,70,100,2.06,CA,1707795805
116,cambria,-121.0808,35.5641,12.65,84,61,2.16,US,1707795805
117,laghouat,2.8651,33.8,13.51,69,33,8.17,DZ,1707795805
118,invercargill,168.35,-46.4,23.39,42,45,3.61,NZ,1707795805
119,alice springs,133.8833,-23.7,34.75,26,40,3.6,AU,1707795653
120,walvis bay,14.5053,-22.9575,17.53,88,59,0,NA,1707795670
121,shiraz,52.5388,29.6036,0.69,69,0,0,IR,1707795806
122,vorgashor,63.95,67.5833,-35.93,99,29,2.39,RU,1707795806
123,la passe,-0.8967,45.5549,5.55,95,100,3.38,FR,1707795549
124,qufu,116.9911,35.5967,16.08,43,0,4.74,CN,1707795806
125,bac lieu,105.7244,9.285,32.41,40,29,4.69,VN,1707795807
126,praia da vitoria,-27.0667,38.7333,17.09,82,20,13.31,PT,1707795807
127,utrik,169.8474,11.2278,26.08,70,100,9.65,MH,1707795656
128,tarija,-64.7296,-21.5355,19.12,84,100,0.58,BO,1707795807
129,borivli,72.85,19.2333,24.95,50,20,2.06,IN,1707795807
130,kulhudhuffushi,73.07,6.6221,27.67,68,86,4.26,MV,1707795807
131,palikir - national government center,158.1611,6.9248,29.47,79,100,7.72,FM,1707795808
132,alofi,-169.9187,-19.0595,28.94,79,75,5.66,NU,1707795808
133,edinburgh of the seven seas,-12.3116,-37.0676,17.48,75,94,6.2,SH,1707795514
134,kill devil hills,-75.676,36.0307,11,97,100,0,US,1707795682
135,kushima,131.2333,31.4583,16.69,57,35,2.72,JP,1707795809
136,taseyevo,94.8978,57.2169,-16.22,83,100,4.52,RU,1707795809
137,preobrazheniye,133.9064,42.9019,5.51,62,2,4.25,RU,1707795809
138,mejit,170.8646,10.2753,26.34,69,100,8.91,MH,1707795809
139,mandalgovi,106.2708,45.7625,-8.61,65,100,5.8,MN,1707795809
140,olonkinbyen,-8.7187,70.9221,-1.34,98,100,8.21,SJ,1707795810
141,happy valley-goose bay,-60.3315,53.3168,-6.83,93,100,2.57,CA,1707795705
142,lingsugur,76.5167,16.1667,24.49,41,54,6.67,IN,1707795810
143,bonthe,-12.505,7.5264,25.37,88,0,1.69,SL,1707795811
144,namibe,12.1522,-15.1961,25.64,77,100,3.24,AO,1707795811
145,tangalle,80.7911,6.024,29.09,62,60,5.36,LK,1707795811
146,kayes,-11,14,26.23,9,0,2.03,ML,1707795811
147,naberera,36.9333,-4.2,17.77,94,93,0.97,TZ,1707795811
148,manggar,108.2667,-2.8833,29.59,68,94,1.65,ID,1707795674
149,cristalina,-47.6136,-16.7686,16.57,89,1,1.57,BR,1707795812
150,whitehorse,-135.0538,60.7161,-3.57,68,100,1.03,CA,1707795538
151,krasnokamsk,55.7541,58.0802,-9.91,96,100,1.93,RU,1707795812
152,champerico,-91.9167,14.3,23.96,71,7,1.71,GT,1707795642
153,newman,-121.0208,37.3138,12.13,82,80,1.34,US,1707795687
154,imranli,38.1136,39.8754,1.38,90,100,2.53,TR,1707795813
155,pingliang,106.6861,35.5392,9.9,44,92,0.6,CN,1707795813
156,wuwei,102.6414,37.9281,5.52,17,42,3.15,CN,1707795813
157,san jose,-121.895,37.3394,12.38,71,100,0.45,US,1707795611
158,ketchikan,-131.6461,55.3422,3.99,87,0,2.06,US,1707795679
159,mount pearl,-52.7813,47.5166,0.53,94,100,5.14,CA,1707795814
160,okha,142.9478,53.5739,-13.68,92,97,7.29,RU,1707795815
161,kinablangan,126.5503,7.6947,27.24,73,95,4.09,PH,1707795815
162,al jawf,38.75,29.5,11.66,59,100,4.24,SA,1707795815
163,tolanaro,46.9987,-25.0319,25.04,94,75,3.09,MG,1707795815
164,quellon,-73.6167,-43.1167,7.89,88,81,1.57,CL,1707795816
165,flin flon,-101.865,54.7682,-5.26,95,100,2.93,CA,1707795816
166,tura,90.2201,25.5198,22.89,18,5,1.43,IN,1707795816
167,salekhard,66.6019,66.53,-36.8,98,10,2.04,RU,1707795816
168,khandyga,135.6,62.6667,-18.21,89,100,2.52,RU,1707795658
169,chonchi,-73.8092,-42.6128,11.56,64,80,0.96,CL,1707795816
170,fort riley north,-96.8139,39.1108,5.39,71,0,0,US,1707795817
171,crane,-102.3501,31.3974,9.77,32,0,2.68,US,1707795817
172,badger,-147.5333,64.8,-5.36,89,75,3.6,US,1707795662
173,hithadhoo,73.0833,-0.6,28.07,77,100,7.1,MV,1707795817
174,kapoeta,33.5903,4.7717,29.5,34,89,6.7,SS,1707795818
175,mount isa,139.5,-20.7333,33.87,52,75,4.12,AU,1707795818
176,pundong,110.3486,-7.9522,30.33,67,15,3.15,ID,1707795819
177,college,-147.8028,64.8569,-5.31,86,75,3.6,US,1707795559
178,fort-shevchenko,50.263,44.5086,8.66,62,100,5.98,KZ,1707795819
179,vernon,-119.2691,50.2581,-0.43,93,18,1.03,CA,1707795687
180,port blair,92.75,11.6667,29.02,74,20,4.12,IN,1707795819
181,vilyuchinsk,158.4028,52.9306,-7.85,59,7,1.77,RU,1707795649
182,lihue,-159.3672,21.9789,25.77,68,0,4.12,US,1707795820
183,warrnambool,142.4833,-38.3833,27.38,38,64,9.12,AU,1707795820
184,aviano,12.5947,46.0706,6.99,84,100,2.48,IT,1707795820
185,touros,-35.4608,-5.1989,26.81,82,90,4.87,BR,1707795667
186,quinhamel,-15.85,11.8833,19.47,85,0,1.88,GW,1707795820
187,hassi messaoud,6.0729,31.6804,15.92,63,0,4.12,DZ,1707795821
188,georgetown,100.3354,5.4112,32.75,57,20,2.57,MY,1707795821
189,lompoc,-120.4579,34.6391,12.1,84,75,4.02,US,1707795625
190,san martin,-68.4681,-33.081,23.3,39,0,3.1,AR,1707795821
191,kowon-up,127.2431,39.4381,10.26,62,4,4.65,KP,1707795821
192,benjamin constant,-70.0311,-4.3831,25.07,99,100,1.14,BR,1707795822
193,necochea,-58.7368,-38.5473,15.28,53,9,7.71,AR,1707795652
194,nyandoma,40.1991,61.669,-23,100,86,2.18,RU,1707795822
195,brookings,-96.7984,44.3114,-1,89,0,0,US,1707795245
196,port elizabeth,25.5701,-33.918,20.16,91,20,9.77,ZA,1707795711
197,iwaki,140.8833,37.05,15.63,47,0,0.89,JP,1707795692
198,neyshabur,58.7958,36.2133,9.34,28,15,0.81,IR,1707795823
199,howard springs,131.047,-12.497,25.95,88,100,5.02,AU,1707795823
200,figuig (centre),-1.2286,32.1089,13.87,51,0,2.25,MA,1707795823
201,luang namtha,101.4011,20.9497,16.01,100,100,1.03,LA,1707795824
202,kodiak,-152.4072,57.79,5.73,75,100,6.17,US,1707795824
203,meadow lake,-106.5436,34.8014,4.71,39,0,3.2,US,1707795825
204,djambala,14.7533,-2.5447,21.76,90,87,2.04,CG,1707795826
205,brokopondo,-55.1667,4.75,23.78,93,89,2.79,SR,1707795826
206,kyabe,18.9449,9.4515,25.23,16,65,2.09,TD,1707795827
207,susuman,148.1667,62.7833,-36.68,97,85,0.45,RU,1707795591
208,koumra,17.5539,8.9126,25.03,16,59,2.01,TD,1707795827
209,gornozavodsk,58.3211,58.3758,-12.37,96,100,2.44,RU,1707795827
210,enoch,-113.0244,37.7733,1.93,76,0,2.57,US,1707795827
211,geraldton,114.6,-28.7667,34.23,26,0,7.72,AU,1707795670
212,sisimiut,-53.6735,66.9395,-23.02,92,26,2.68,GL,1707795794
213,bcharre,36.0106,34.2508,6.89,62,100,2.3,LB,1707795828
214,acarau,-40.12,-2.8856,26.16,87,100,5.51,BR,1707795642
215,nova sintra,-24.7167,14.8667,20.05,80,97,5.9,CV,1707795654
216,tshabong,22.45,-26.05,25.64,36,40,4.97,BW,1707795828
217,chinchilla,150.6333,-26.75,27.79,68,99,1.79,AU,1707795829
218,atafu village,-172.5159,-8.5421,27.52,85,100,12.15,TK,1707795829
219,constantia,28.65,44.1833,4.38,86,100,2.87,RO,1707795756
220,nizhnevartovsk,76.5531,60.9344,-28.88,76,0,1,RU,1707795829
221,howrah,88.3103,22.5892,23,60,40,0,IN,1707795831
222,iskateley,53.1512,67.6803,-32.77,100,15,2.24,RU,1707795831
223,wau,27.9953,7.7029,24.74,27,70,1.54,SS,1707795831
224,effium,8.0593,6.6292,25.59,80,1,2.65,NG,1707795831
225,aktau,51.2,43.65,4.32,62,100,5.42,KZ,1707795832
226,kapa'a,-159.319,22.0752,26.18,68,0,4.12,US,1707795832
227,puerto santa,-78.6456,-8.9906,22.76,88,98,2.99,PE,1707795832
228,labytnangi,66.4183,66.6572,-35.25,95,12,1.71,RU,1707795833
229,lashio,97.75,22.9333,24.41,31,28,0.89,MM,1707795833
230,ust-nera,143.2,64.5667,-33.81,95,91,0.96,RU,1707795833
231,dunedin,170.5036,-45.8742,22.4,44,57,2.47,NZ,1707795833
232,al khums,14.2619,32.6486,15.86,75,60,6.11,LY,1707795834
233,anadyr,177.4833,64.75,-29.72,74,0,5,RU,1707795834
234,fortuna,-124.1573,40.5982,11.19,94,100,0,US,1707795834
235,christchurch,172.6333,-43.5333,24.12,60,47,5.66,NZ,1707795723
236,taroa,171.2275,8.7058,26.92,68,98,9.02,MH,1707795834
237,hamilton,-84.5333,39.1834,6.35,68,100,2.24,US,1707795673
238,mafinga,35.0667,-7.25,19.66,96,100,0.52,TZ,1707795834
239,manta,-80.7333,-0.95,26.67,83,40,6.71,EC,1707795834
240,margaret river,115.0667,-33.95,23.86,38,0,6.07,AU,1707795835
241,kikwit,18.8162,-5.041,23.11,83,39,1.36,CD,1707795835
242,chui,-53.4616,-33.6971,20.4,91,100,5.71,UY,1707795835
243,murzuq,13.9184,25.9155,14.26,43,0,3.76,LY,1707795835
244,bhimunipatnam,83.4333,17.8833,22.73,49,90,1.42,IN,1707795836
245,saint-joseph,55.6167,-21.3667,27.21,81,72,3.62,RE,1707795836
246,gracemere,150.45,-23.4333,27.95,78,40,3.09,AU,1707795837
247,cadale,46.3222,2.7603,26.52,83,61,5.88,SO,1707795837
248,sai buri,101.6168,6.7013,28.84,69,73,7,TH,1707795837
249,pacajus,-38.4606,-4.1725,27.64,96,47,1.58,BR,1707795837
250,mao,4.2658,39.8885,12.31,76,0,6.69,ES,1707795838
251,nemuro,145.575,43.3236,2.61,77,4,7.12,JP,1707795838
252,manacapuru,-60.6206,-3.2997,25.4,87,70,1.35,BR,1707795838
253,greymouth,171.2,-42.4667,16.35,68,74,4.33,NZ,1707795839
254,hami,93.45,42.8,1.19,38,100,3.71,CN,1707795839
255,guiuan,125.7247,11.0333,27.89,77,90,3.94,PH,1707795839
256,mahibadhoo,72.9667,3.7833,28.04,81,100,7.21,MV,1707795839
257,port hedland,118.5667,-20.3167,32.03,62,100,4.63,AU,1707795815
258,diebougou,-3.25,10.9667,25.39,12,90,1.95,BF,1707795839
259,bandarbeyla,50.8122,9.4942,25.97,74,15,4.79,SO,1707795654
260,prince rupert,-130.3201,54.3161,5.83,93,20,6.17,CA,1707795840
261,grand-bassam,-3.7388,5.2118,28.98,88,42,3,CI,1707795841
262,saiha,92.9667,22.4833,25.87,19,3,1.27,IN,1707795841
263,ibi,-0.5723,38.6253,14.01,62,100,2.21,ES,1707795842
264,hilo,-155.09,19.7297,25.16,81,100,1.54,US,1707795842
265,sabha,14.4283,27.0377,13.88,47,0,4.44,LY,1707795842
266,illizi,8.4667,26.4833,15.89,34,0,2.91,DZ,1707795843
267,redencao,-38.7306,-4.2258,23.64,98,46,1.19,BR,1707795843
268,kyshtovka,76.6271,56.555,-19.84,97,94,2.22,RU,1707795731
269,nar'yan-mar,53.087,67.6713,-32.72,100,19,2.24,RU,1707795844
270,yurimaguas,-76.0833,-5.9,23.38,96,92,0.76,PE,1707795844
271,general villegas,-63.0125,-35.0328,15.49,62,1,4.44,AR,1707795845
272,jau,-48.5578,-22.2964,26.07,65,100,1.54,BR,1707795845
273,mirnyy,113.9611,62.5353,-26.64,94,97,2.66,RU,1707795846
274,port-cartier,-66.8654,50.0334,-7.18,93,98,1.83,CA,1707795846
275,dudinka,86.1778,69.4058,-37.4,99,44,1.79,RU,1707795823
276,inverloch,145.7167,-38.6333,35.03,29,13,8.81,AU,1707795847
277,bam,58.357,29.106,13.49,35,0,2.96,IR,1707795847
278,halapitan,125.33,7.9175,25.89,73,100,3.17,PH,1707795847
279,kish,54.0194,26.5578,17.15,94,1,2.06,IR,1707795847
280,masterton,175.6575,-40.9597,22.83,31,10,2.36,NZ,1707795848
281,n'zeto,12.8666,-7.2312,27.55,88,100,4.26,AO,1707795848
282,veinticinco de mayo,-60.1727,-35.4323,13.04,70,0,3.88,AR,1707795848
283,cole harbour,-63.4751,44.6724,0.71,88,97,1.5,CA,1707795848
284,port alfred,26.891,-33.5906,17.88,96,1,2.6,ZA,1707795789
285,upington,21.2561,-28.4478,23.21,38,2,1.54,ZA,1707795796
286,camana,-72.7111,-16.6228,24.07,83,98,1.28,PE,1707795849
287,changqing,116.7272,36.5575,16.48,43,0,6.72,CN,1707795850
288,okhotsk,143.3,59.3833,-21.64,89,100,2.79,RU,1707795651
289,karachi,67.0822,24.9056,18.9,39,75,2.57,PK,1707795661
290,boa vista,-60.6733,2.8197,29.99,58,40,8.23,BR,1707795851
291,new kingman-butler,-114.0323,35.265,8.51,59,0,2.57,US,1707795851
292,nuporanga,-47.7306,-20.7308,23.77,68,100,2.39,BR,1707795852
293,buka,69.1986,40.8108,7.26,67,95,0.65,UZ,1707795852
294,suva,178.4415,-18.1416,29.71,84,75,2.06,FJ,1707795852
295,santyoku,129.1708,37.4406,12,53,1,3.11,KR,1707795852
296,castanos,-101.4167,26.7833,12.17,30,0,3.37,MX,1707795853
297,leh,77.5833,34.1667,-10.98,67,72,0.78,IN,1707795854
298,tanggu,117.6469,39.0211,10.98,71,1,1.67,CN,1707795854
299,borogontsy,131.1683,62.6683,-26.27,93,100,2.02,RU,1707795855
300,yarmouth,-70.2286,41.7057,3.31,87,100,1.34,US,1707795855
301,totness,-56.3167,5.8833,24.79,89,78,3.31,SR,1707795855
302,weno,151.8468,7.4515,29.97,66,40,6.69,FM,1707795855
303,muisne,-80.0333,0.6,26.85,86,94,4.28,EC,1707795856
304,nahiyat al fuhud,46.7228,30.9697,15.1,57,16,3.16,IQ,1707795856
305,east london,27.9116,-33.0153,20.52,88,0,2.06,ZA,1707795682
306,mossel bay,22.146,-34.1831,17.96,84,41,4.6,ZA,1707795857
307,fort bragg,-79.006,35.139,15.46,94,100,4.12,US,1707795857
308,sao vicente,-46.3919,-23.9631,30.1,26,93,2.94,BR,1707795857
309,lerwick,-1.1494,60.1545,4,97,98,4.93,GB,1707795668
310,mount gambier,140.7667,-37.8333,22.84,51,34,7.18,AU,1707795858
311,pathein,94.7333,16.7833,32.31,24,34,3.51,MM,1707795858
312,meridian,-116.3915,43.6121,5.84,72,100,2.57,US,1707795752
313,slave lake,-114.769,55.2834,-2.01,46,75,6.69,CA,1707795759
314,barmer,71.3833,25.75,17.83,20,58,4.12,IN,1707795859
315,rabo de peixe,-25.5833,37.8,17.77,99,75,10.29,PT,1707795859
316,forster,152.5167,-32.1667,28.54,65,5,9.59,AU,1707795860
317,roosevelt,-103.4505,33.9668,-0.07,67,0,5.24,US,1707795860
318,igarka,86.5833,67.4667,-36.36,95,23,1.99,RU,1707795860
319,kannangad,75.1063,12.3081,27.92,49,3,1.4,IN,1707795860
320,akureyri,-18.0878,65.6835,-0.04,100,75,6.69,IS,1707795860
321,cam ranh,109.1591,11.9214,27.98,57,20,7.2,VN,1707795862
322,chilliwack,-121.9443,49.1747,6.55,91,32,0.45,CA,1707795862
323,papao,-149.55,-17.75,27.82,89,100,14.39,PF,1707795862
324,saint-francois,3.9054,46.4154,4.12,100,0,2.06,FR,1707795862
325,ferkessedougou,-5.2,9.6,25.48,13,100,0.54,CI,1707795863
326,pontianak,109.3333,-0.0333,28.99,83,75,2.57,ID,1707795863
327,hammerfest,23.6821,70.6634,-5.75,73,98,8.75,NO,1707795863
328,le port,55.2919,-20.9373,28.98,79,55,2.49,RE,1707795863
329,at taj,23.2857,24.2049,13.33,36,0,3.75,LY,1707795864
330,mandera,41.867,3.9366,25.62,67,7,2.81,KE,1707795864
331,boise,-116.2035,43.6135,5.67,70,75,2.57,US,1707795599
332,fairbanks,-147.7164,64.8378,-5.31,87,75,3.6,US,1707795865
333,kirakira,161.9205,-10.4544,29.31,71,77,6.92,SB,1707795811
334,pangai,-174.35,-19.8,29.06,84,75,4.12,TO,1707795865
335,ksour essaf,10.9948,35.4181,13.92,78,2,6.83,TN,1707795866
336,axim,-2.2405,4.8699,27.51,86,18,2.58,GH,1707795866
337,paranhos,-55.4311,-23.8928,26.68,61,83,2.09,BR,1707795866
338,solnechnyy,136.6319,50.7214,-10.54,91,100,2.77,RU,1707795866
339,laojunmiao,97.7333,39.8333,-2.67,48,34,2.83,CN,1707795867
340,bol,14.7147,13.4586,21.42,26,1,5.25,TD,1707795867
341,andergrove,149.1833,-21.0833,28.14,81,36,4.57,AU,1707795867
342,la ronge,-105.2842,55.1001,-1.86,74,75,3.09,CA,1707795672
343,kayangel,134.7173,8.0823,27.34,79,70,10.92,PW,1707795868
344,cobija,-68.7692,-11.0267,22.95,99,100,0.69,BO,1707795868
345,saudarkrokur,-19.6394,65.7461,0.1,95,100,8.55,IS,1707795868
346,price,-110.8107,39.5994,0.06,74,0,3.09,US,1707795869
347,brad,22.7833,46.1333,6.75,96,100,1.57,RO,1707795869
348,guadalupe,-100.25,25.6833,15.67,38,40,3.09,MX,1707795869
349,katsuura,140.3,35.1333,15.01,60,3,12.03,JP,1707795654
350,vriddhachalam,79.3333,11.5,28.11,54,100,5.05,IN,1707795734
351,talitsy,42.3344,56.5289,-10.42,94,100,3.51,RU,1707795870
352,paka,103.4368,4.6374,28.96,74,40,4.12,MY,1707795870
353,capitao poco,-47.0594,-1.7464,23.15,98,98,1.9,BR,1707795871
354,nong phai,101.0618,15.9903,30.79,30,56,2.19,TH,1707795872
355,makar'yev,43.8069,57.8797,-21.03,99,30,2.69,RU,1707795872
356,forio,13.8646,40.7342,11.9,91,100,0.89,IT,1707795873
357,kailua-kona,-155.9956,19.6406,26.98,59,20,5.14,US,1707795874
358,emmett,-116.4993,43.8735,6.31,65,100,0.77,US,1707795874
359,maua,-46.4614,-23.6678,25.16,74,89,2.54,BR,1707795874
360,turpan,89.1667,42.9333,5.76,36,100,1.62,CN,1707795875
361,el granada,-122.4694,37.5027,12.88,84,40,6.69,US,1707795791
362,klaksvik,-6.589,62.2266,2.51,80,77,3.69,FO,1707795768
363,gladstone,151.25,-23.85,28.96,70,100,6.69,AU,1707795875
364,pangody,74.4859,65.85,-39.79,100,40,1.46,RU,1707795687
365,ust'-ilimsk,102.6619,58.0006,-15.43,92,100,4.02,RU,1707795876
366,half moon bay,-122.4286,37.4636,12.87,83,40,6.69,US,1707795877
367,taoudenni,-3.9836,22.6783,23.41,31,0,4.65,ML,1707795877
368,eyl,49.8164,7.9803,24.62,80,14,3.42,SO,1707795878
369,bodaybo,114.1933,57.8506,-12.72,82,100,5.03,RU,1707795878
370,porto novo,2.6036,6.4965,26.01,90,0,2.13,BJ,1707795878
371,rongelap,166.8941,11.1635,26.35,78,87,8.44,MH,1707795878
372,pinsk,26.0951,52.1229,6.4,89,100,2.49,BY,1707795878
373,holualoa,-155.9522,19.6228,24.91,60,20,5.14,US,1707795879
374,minot air force base,-101.3391,48.4209,-6.9,88,75,1.54,US,1707795879
375,sao joao da barra,-41.0511,-21.6403,23.19,97,58,1.78,BR,1707795718
376,sorong,131.25,-0.8833,29.4,68,60,5.92,ID,1707795879
377,kudat,116.8477,6.8837,27.96,89,40,4.12,MY,1707795880
378,kinkala,14.7644,-4.3614,22.76,95,25,0.8,CG,1707795880
379,thinadhoo,72.9333,0.5333,28.06,80,97,8.11,MV,1707795880
380,feurs,4.2271,45.7399,4.47,80,41,0.34,FR,1707795880
381,kayyerkan,87.7439,69.3786,-34.53,91,21,1.01,RU,1707795881
382,zhuanghe,122.9911,39.7008,6.95,77,52,2.77,CN,1707795743
383,sao gabriel da cachoeira,-67.0892,-0.1303,24.05,88,60,0.73,BR,1707795692
384,khasavyurt,46.5881,43.25,8.74,63,100,0.99,RU,1707795881
385,shuangcheng,126.2833,45.35,2.82,90,0,8.64,CN,1707795882
386,elliot,27.85,-31.3333,17.51,45,0,3.15,ZA,1707795882
387,hasaki,140.8333,35.7333,15.22,52,2,11.45,JP,1707795882
388,carai,-41.6947,-17.1889,19.31,98,36,1.98,BR,1707795883
389,biloela,150.5,-24.4167,30.83,48,59,7.82,AU,1707795883
390,flying fish cove,105.6791,-10.4217,28.82,78,100,0,CX,1707795659
391,pavilosta,21.1859,56.8879,1.95,98,100,6.55,LV,1707795883
392,luanda,13.2343,-8.8368,27,78,40,1.54,AO,1707795883
393,warwick,-71.4162,41.7001,4.05,74,100,2.06,US,1707795884
394,dalandzadgad,104.425,43.5708,-2.73,61,100,6.21,MN,1707795884
395,la'ie,-157.9253,21.6477,27.98,65,0,1.79,US,1707795647
396,ulladulla,150.4667,-35.35,35.16,29,10,4.8,AU,1707795885
397,pangkalpinang,106.1333,-2.1333,27.14,87,100,2.42,ID,1707795885
398,colonia,6.95,50.9333,4.9,89,40,1.03,DE,1707795885
399,horta,-28.6333,38.5333,16.68,88,51,9.83,PT,1707795885
400,charters towers,146.2667,-20.1,34.02,35,16,2.93,AU,1707795885
401,tortoli,9.6572,39.9256,11.9,58,0,4.12,IT,1707795886
402,minas de marcona,-75.1103,-15.2119,19.54,81,24,3.56,PE,1707795663
403,codrington,141.9667,-38.2667,25.56,44,24,11.02,AU,1707795886
404,guararapes,-50.6428,-21.2608,24.78,60,100,1.68,BR,1707795886
405,vadso,29.7487,70.0744,-8.91,79,40,5.66,NO,1707795886
406,al muwayh,41.7583,22.4333,12.52,40,0,5.5,SA,1707795887
407,nema,50.5011,57.5067,-15.87,100,94,2.16,RU,1707795887
408,mossendjo,12.7261,-2.9506,22.42,97,100,1.42,CG,1707795888
409,hadibu,54.0333,12.65,24.82,76,33,3.61,YE,1707795888
410,nuuk,-51.7216,64.1835,-11.66,72,75,5.14,GL,1707795889
411,udachny,112.4,66.4167,-30.43,94,100,5.81,RU,1707795890
412,thames,175.5333,-37.1333,24.45,44,2,2.38,NZ,1707795890
413,amga,131.9608,60.8953,-25.07,85,99,3.01,RU,1707795890
414,dahab,34.5134,28.501,18.44,38,79,1.19,EG,1707795891
415,thunder bay,-89.3168,48.4001,-10.01,85,0,1.54,CA,1707795646
416,saint-denis,2.3333,48.9167,4.27,95,0,2.57,FR,1707795891
417,tralee,-9.7026,52.2704,6.38,82,67,4.59,IE,1707795663
418,butner,-78.7567,36.1321,14.15,96,100,4.08,US,1707795892
419,kashiwazaki,138.55,37.3667,12.85,42,0,1.24,JP,1707795892
420,twon-brass,6.2418,4.3151,27.19,88,2,2.54,NG,1707795892
421,betio village,172.9211,1.358,28.02,82,87,6.18,KI,1707795893
422,casino,153.05,-28.8667,29.2,40,84,3.49,AU,1707795893
423,stornoway,-6.3865,58.2093,5.21,84,98,6.17,GB,1707795893
424,remire-montjoly,-52.2667,4.9167,26.02,94,75,4.12,GF,1707795660
425,kuala belait,114.1833,4.5833,31.09,66,54,4.37,BN,1707795893
426,roma,-75.4557,43.2128,0.53,90,59,1.21,US,1707795894
427,saurimo,20.3916,-9.6608,18.1,96,39,0.7,AO,1707795894
428,kuusamo,29.1833,65.9667,-31.98,83,100,1.03,FI,1707795894
429,bardai,7.2333,11.65,20.48,11,0,3.99,NG,1707795895
430,camayenne,-13.6878,9.535,25.55,78,0,3.92,GN,1707795895
431,trairi,-39.2689,-3.2778,26.11,86,86,3.79,BR,1707795843
432,ilheus,-39.0494,-14.7889,24.69,91,53,2.38,BR,1707795895
433,boke,-14.2967,10.9409,21.21,90,0,0.31,GN,1707795896
434,richards bay,32.0377,-28.783,20.61,82,74,2.02,ZA,1707795674
435,kinna,12.6946,57.5073,0.41,93,100,2.66,SE,1707795896
436,luanco,-5.7934,43.6152,9.71,89,54,3.14,ES,1707795896
437,port saint john's,29.5448,-31.6229,20.79,87,6,5.24,ZA,1707795897
438,heerhugowaard,4.8486,52.6714,5.56,92,100,2.24,NL,1707795897
439,faya-largeau,19.1043,17.9257,22.27,12,0,4.36,TD,1707795898
440,mahriz,54.4318,31.5917,4.28,29,0,1.47,IR,1707795898
441,andritz,15.4223,47.1036,6.55,74,75,1.54,AT,1707795899
442,baruun-urt,113.2792,46.6806,-9.19,75,80,2.89,MN,1707795900
443,ola,151.2833,59.5833,-18.81,85,43,1.34,RU,1707795900
444,rabigh,39.0349,22.7986,24.22,57,59,1.26,SA,1707795627
445,arkadelphia,-93.0538,34.1209,5.54,86,0,1.54,US,1707795900
446,miragoane,-73.0876,18.4423,25.7,78,5,1.75,HT,1707795901
447,livingston,-3.5226,55.9029,4.36,88,75,5.14,GB,1707795602
448,beira,34.8389,-19.8436,26.05,73,75,3.13,MZ,1707795902
449,rio san juan,-70.0763,19.6439,22.93,88,8,4.87,DO,1707795902
450,chos malal,-70.2709,-37.3781,17.1,40,0,2.77,AR,1707795902
451,cottage lake,-122.0773,47.7443,8.36,94,97,0.45,US,1707795904
452,recani,-4.2688,31.2846,15.52,31,11,1.39,MA,1707795904
453,aromashevo,68.6375,56.8602,-13.85,92,100,4.16,RU,1707795738
454,nikel,30.222,69.4128,-16.9,99,43,3.21,RU,1707795905
455,nasir,32.5634,15.5894,21.87,23,45,3.79,SD,1707795906
456,bikenibeu village,173.1241,1.3673,27.98,89,75,5.14,KI,1707795906
457,prince albert,-105.7677,53.2001,-5.03,74,100,5.14,CA,1707795906
458,cheremushki,91.3944,52.8356,-11.22,64,97,4.72,RU,1707795907
459,palmer,-72.3287,42.1584,2.22,68,75,0,US,1707795907
460,krymsk,37.9912,44.9293,13.36,58,100,2,RU,1707795907
461,cruzeiro do sul,-51.9853,-29.5128,25.6,91,100,1.46,BR,1707795907
462,forbes,148.0167,-33.3833,34.4,32,43,5.5,AU,1707795908
463,lahat,103.5333,-3.8,28.33,78,72,2.41,ID,1707795908
464,nushki,66.0215,29.5542,15.08,30,39,1.04,PK,1707795858
465,noumea,166.4572,-22.2763,29.99,99,54,7.53,NC,1707795909
466,luderitz,15.1594,-26.6481,16.68,96,1,6.9,NA,1707795909
467,vilyuysk,121.6247,63.7553,-25.92,91,100,2.69,RU,1707795676
468,travnik,17.6706,44.2267,4.65,88,98,0.76,BA,1707795910
469,floro,5.0328,61.5996,2.98,65,100,7.2,NO,1707795911
470,tindouf,-8.1474,27.6711,18.29,31,0,3.6,DZ,1707795912
471,ayr,-4.6339,55.4627,5.99,81,73,5.66,GB,1707795913
472,jatiroto,111.1167,-7.8833,29.66,65,20,2.68,ID,1707795913
473,thomasville,-80.082,35.8826,13.17,97,100,2.68,US,1707795888
474,saint-pierre,55.4781,-21.3393,27.82,78,20,2.06,RE,1707795915
475,fale old settlement,-171.2468,-9.3852,27.27,87,100,10.67,TK,1707795682
476,sultanah,39.5857,24.4926,16.25,41,20,6.69,SA,1707795915
477,sitka,-135.33,57.0531,2.94,87,0,2.06,US,1707795917
478,manokwari,134.0833,-0.8667,28.74,70,90,3.82,ID,1707795917
479,kambove,26.5969,-10.8764,15.92,97,100,1.98,CD,1707795917
480,jianshui,102.8264,23.6363,21.35,39,1,5.24,CN,1707795918
481,anupgarh,73.2086,29.1911,16.25,16,100,1.92,IN,1707795919
482,manfalut,30.97,27.3104,13.14,21,3,4.07,EG,1707795920
483,beroroha,45.1667,-21.6667,23.46,89,100,3.29,MG,1707795845
484,zemio,25.1361,5.0314,22.89,58,20,0.53,CF,1707795920
485,ambovombe,46.0833,-25.1667,23.44,89,100,2.34,MG,1707795920
486,fengkou,113.2667,30.0833,19.49,46,31,7.3,CN,1707795921
487,kani keli,45.1033,-12.9536,27.59,78,86,4.45,YT,1707795922
488,sidney,151.2073,-33.8679,34.3,66,0,9.77,AU,1707795817
489,blaye,-0.5,45.1667,3.93,95,96,2.92,FR,1707795923
490,chibougamau,-74.3659,49.9168,-11.21,85,100,1.03,CA,1707795923
491,akaltara,82.4333,22.0167,25.1,46,100,2.47,IN,1707795923
492,novodvinsk,40.8122,64.4165,-27.9,100,38,1.33,RU,1707795924
493,gustavsberg,18.3898,59.3268,-0.46,96,100,5.46,SE,1707795924
494,clarkston heights-vineland,-117.083,46.3874,6.47,84,100,2.06,US,1707795924
495,zhangzhou,117.6556,24.5133,19.96,44,37,0.72,CN,1707795874
496,nadi,177.4167,-17.8,31,74,40,5.66,FJ,1707795904
497,ismailia,32.2723,30.6043,17,63,99,6.32,EG,1707795755
498,winthrop harbor,-87.8237,42.4789,4.18,68,0,3.6,US,1707795926
499,biltine,20.9167,14.5333,21.1,11,2,3.87,TD,1707795926
500,dauphin,-100.0502,51.1494,-3.92,86,100,2.57,CA,1707795927
501,nagqu,92,31.5,-7.07,29,100,3.78,CN,1707795805
502,saint-philippe,55.7679,-21.3585,27.77,82,76,4.44,RE,1707795927
503,south hedland,118.5983,-20.4089,30.96,70,100,6.17,AU,1707795928
504,grand falls-windsor,-55.6649,48.9332,-3.85,93,100,2.85,CA,1707795929
505,kingston,-76.7936,17.997,26.53,85,20,8.75,JM,1707795632
506,westport,-73.3579,41.1415,4.75,61,100,3.6,US,1707795677
507,dongkan,119.8308,33.9997,16.6,46,0,4.62,CN,1707795930
508,lubumbashi,27.4794,-11.6609,17.23,97,99,2.39,CD,1707795912
509,calchaqui,-60.287,-29.8877,22,95,100,5.26,AR,1707795931
510,argo,22.7333,37.6333,9.88,74,76,1.5,GR,1707795931
511,saldanha,17.9442,-33.0117,17.03,94,99,4.08,ZA,1707795931
512,rahimah,50.0619,26.7079,13.12,76,0,4.61,SA,1707795932
513,jiagedaqi,124.1167,50.4167,-4.77,83,100,2.63,CN,1707795933
514,salalah,54.0924,17.0151,23.05,83,0,2.06,OM,1707795933
515,mugia,-9.2179,43.1041,15.51,97,91,10.03,ES,1707795934
516,tete,33.5867,-16.1564,25.05,83,75,2.06,MZ,1707795934
517,cabo san lucas,-109.9124,22.8909,19.86,71,0,2.57,MX,1707795660
518,lata,-8.3327,40.1629,13.37,97,100,1.81,PT,1707795935
519,warmbad,18.7333,-28.45,22.33,36,2,1.9,NA,1707795936
520,laranjeiras do sul,-52.4161,-25.4078,19.18,90,54,1.53,BR,1707795936
521,yorosso,-4.7761,12.3536,24.9,9,98,2.83,ML,1707795936
522,sassandra,-6.0833,4.95,26,93,10,2.52,CI,1707795936
523,san patricio,-97.5169,28.017,13.97,57,0,2.38,US,1707795937
524,tame,-71.73,6.461,26.24,50,17,2.5,CO,1707795937
525,polyarnyy,33.4478,69.1989,-19.97,99,60,5.24,RU,1707795808
526,margate,1.3862,51.3813,5.94,85,82,1.79,GB,1707795811
527,kennewick,-119.1372,46.2113,8.85,77,100,1.54,US,1707795938
528,puerto deseado,-65.8938,-47.7503,11.78,62,71,5.49,AR,1707795764
529,bandar abbas,56.2808,27.1865,13.99,72,0,2.06,IR,1707795939
530,conception bay south,-52.9981,47.4999,0.86,95,100,3.68,CA,1707795939
531,broken hill,141.4333,-31.95,35.73,23,0,7.01,AU,1707795939
532,el calafate,-72.2768,-50.3408,10.41,60,95,2.43,AR,1707795940
533,phang nga,98.5298,8.4509,31.02,47,5,2.63,TH,1707795940
534,baryshivka,31.3217,50.361,5.61,94,100,3.3,UA,1707795940
535,zyryanovsk,84.2719,49.7386,-23.43,95,37,0.5,KZ,1707795941
536,karagandy,73.1021,49.8019,-22.03,82,35,2.28,KZ,1707795942
537,luena,19.9167,-11.7833,17.88,85,70,1.6,AO,1707795764
538,buritis,-46.4233,-15.6178,20.16,87,5,0.7,BR,1707795942
539,culiacan,-107.3897,24.7994,17.82,55,0,0,MX,1707795934
540,kidal,1.4078,18.4411,21.93,9,42,4.25,ML,1707795943
541,tosontsengel,98.2839,48.7567,-18.88,96,99,2.17,MN,1707795943
542,kovdor,30.4758,67.5662,-27.78,100,100,1.91,RU,1707795944
543,tucuma,-50.05,-0.1833,24.54,94,58,2.71,BR,1707795807
544,bamboo flat,92.7167,11.7,29.05,70,20,5.14,IN,1707795944
545,gaigeturi,126.3183,33.4644,18.03,39,0,5.14,KR,1707795945
546,edmundston,-68.3251,47.3737,-6.37,82,0,3.6,CA,1707795945
547,dolinsk,142.8,47.35,0.96,90,100,3.26,RU,1707795661
548,williams lake,-122.1445,52.1415,-1.24,97,20,0,CA,1707795945
549,wewak,143.6268,-3.5534,29.2,73,100,5,PG,1707795946
550,nuku'alofa,-175.2,-21.1333,28.19,89,100,6.69,TO,1707795946
551,al manaqil,32.9891,14.2459,21.92,27,56,3.24,SD,1707795946
552,gamba,10,-2.65,26.53,88,100,2.47,GA,1707795946
553,mont-dore,166.5833,-22.2833,29.99,99,68,6.14,NC,1707795947
554,khamis mushait,42.7292,18.3064,13.58,71,0,2.06,SA,1707795947
555,farmville,-78.3919,37.3021,10.43,98,100,2.06,US,1707795947
556,mounana,13.1586,-1.4085,23.37,90,81,1.07,GA,1707795948
557,callaway,-85.5699,30.153,16.96,81,0,7.72,US,1707795759
558,aswan,32.907,24.0934,14.61,28,0,1.03,EG,1707795949
559,jiuquan,98.5174,39.7432,0.05,41,26,4.63,CN,1707795949
560,chardon,-81.149,41.6142,-1.18,89,98,0.45,US,1707795950
561,taro,115.28,-8.3862,27,60,30,1.42,ID,1707795950
562,moussoro,16.4901,13.6408,21.51,13,0,3.8,TD,1707795951
563,ebaye,167.7392,8.7748,29.01,70,100,6.69,MH,1707795951
564,berezovyy,135.7,51.6667,-9.9,89,100,1.78,RU,1707795951
565,bukama,25.85,-9.2,20.7,94,99,0.92,CD,1707795952
566,ulsteinvik,5.8487,62.3432,4.5,66,100,4.47,NO,1707795726
567,juan griego,-63.9655,11.0817,26.29,82,53,10.87,VE,1707795953
568,tazacorte,-17.9293,28.629,19.54,92,100,4.12,ES,1707795953
569,merowe,31.8167,18.4833,19.11,22,0,3.61,SD,1707795953
570,gereshk,64.5701,31.8209,12.93,24,0,3.16,AF,1707795954
571,svislach,27.9199,53.6404,1.14,99,100,2.82,BY,1707795954
572,severnoye,78.3619,56.3491,-21.12,97,100,3.13,RU,1707795955
573,karyes,22.5,37.3,5.67,85,100,2.8,GR,1707795955
574,palia kalan,80.5833,28.45,20.67,23,100,1.6,IN,1707795955
575,clarion,-79.3853,41.2148,3.1,79,97,2.42,US,1707795956
576,arkhangel'sk,40.5433,64.5401,-27.71,75,20,2,RU,1707795956
